City_ID,City,Cloudiness,Country,Date,Humidity,Lat,Lng,Max Temp,Wind Speed
0,avarua,68,CK,1568656406,78,-21.21,-159.78,73.4,6.93
1,chernyshevskiy,20,RU,1568656406,83,63.01,112.47,24.43,2.75
2,jamestown,0,AU,1568656406,72,-33.21,138.6,37.93,12.17
3,hobart,14,AU,1568656406,69,-42.88,147.33,41.0,9.17
4,effium,95,NG,1568656407,85,6.63,8.06,79.15,1.81
5,victoria,75,BN,1568656377,83,5.28,115.24,80.6,5.64
6,kapaa,1,US,1568656325,78,22.08,-159.32,82.4,11.41
7,znamenskoye,29,RU,1568656407,75,57.13,73.82,55.75,6.96
8,ushuaia,75,AR,1568656407,86,-54.81,-68.31,41.0,5.82
9,baghdad,0,IQ,1568656191,29,33.3,44.38,89.6,10.29
10,englehart,1,CA,1568656408,52,47.82,-79.87,68.0,4.7
11,fortuna,20,US,1568656408,82,40.6,-124.16,64.99,4.79
12,yellowknife,75,CA,1568656408,70,62.45,-114.38,48.2,13.87
13,vardo,40,US,1568656408,51,39.62,-77.74,90.0,3.36
14,castro,75,CL,1568656409,62,-42.48,-73.76,53.6,11.41
15,puerto ayora,20,EC,1568656409,47,-0.74,-90.35,78.8,14.99
16,harseni,0,RO,1568656409,60,45.75,25.02,59.0,1.74
17,corinto,40,CO,1568656410,51,3.17,-76.26,86.0,3.36
18,bilibino,0,RU,1568656410,85,68.06,166.44,32.17,1.57
19,chokurdakh,81,RU,1568656410,84,70.62,147.9,41.35,4.16
20,husavik,2,CA,1568656410,51,50.56,-96.99,80.01,4.0
21,rikitea,0,PF,1568656410,69,-23.12,-134.97,67.99,20.07
22,qaanaaq,0,GL,1568656411,45,77.48,-69.36,24.43,5.44
23,torbay,75,CA,1568656342,77,47.66,-52.73,66.99,8.05
24,tiznit,83,MA,1568656411,79,29.7,-9.73,71.95,7.96
25,lucapa,94,AO,1568656414,54,-8.42,20.74,78.43,6.98
26,mar del plata,99,AR,1568656414,32,-46.43,-67.52,58.09,30.24
27,basco,20,US,1568656415,79,40.33,-91.2,90.0,4.12
28,albany,1,US,1568656363,59,42.65,-73.75,72.0,3.36
29,cabo san lucas,5,MX,1568656329,55,22.89,-109.91,91.99,5.82
30,barrow,0,AR,1568656415,33,-38.31,-60.23,58.99,13.73
31,talnakh,0,RU,1568656416,64,69.49,88.39,37.4,22.37
32,sitka,71,US,1568656416,38,37.17,-99.65,91.0,23.0
33,hithadhoo,100,MV,1568656416,71,-0.6,73.08,82.93,5.35
34,vaini,62,IN,1568656416,96,15.34,74.49,75.55,2.98
35,port alfred,1,ZA,1568656416,89,-33.59,26.89,66.99,1.99
36,hilo,90,US,1568656417,64,19.71,-155.08,75.99,5.82
37,butaritari,23,KI,1568656417,71,3.07,172.79,84.01,12.48
38,tuktoyaktuk,75,CA,1568656417,80,69.44,-133.03,41.0,18.34
39,pangnirtung,40,CA,1568656417,69,66.15,-65.72,39.2,4.7
40,teya,75,MX,1568656418,62,21.05,-89.07,89.6,6.93
41,kruisfontein,56,ZA,1568656418,82,-34.0,24.73,60.61,2.53
42,pevek,0,RU,1568656418,79,69.7,170.27,43.33,12.44
43,kaitangata,75,NZ,1568656418,79,-46.28,169.85,37.99,17.0
44,biak,100,ID,1568656418,98,-0.91,122.88,60.61,4.14
45,busselton,2,AU,1568656419,72,-33.64,115.35,53.01,8.48
46,atuona,0,PF,1568656419,72,-9.8,-139.03,79.15,13.33
47,rosarito,75,CO,1568656419,72,4.91,-75.23,84.2,9.17
48,ilulissat,75,GL,1568656419,86,69.22,-51.1,37.4,4.7
49,maymyo,90,MM,1568656420,100,22.03,96.47,78.8,11.41
50,yarmouth,75,CA,1568656420,77,43.84,-66.12,64.0,11.41
51,ribeira grande,75,PT,1568656420,88,38.52,-28.7,73.4,18.34
52,mataura,97,NZ,1568656420,85,-46.19,168.86,39.99,11.01
53,airai,98,TL,1568656420,88,-8.93,125.41,67.81,3.27
54,nalut,0,LY,1568656421,23,31.86,10.98,82.75,8.23
55,salgueiro,68,BR,1568656421,23,-8.07,-39.12,92.65,15.95
56,bluff,0,AU,1568656421,78,-23.58,149.07,55.03,4.68
57,belyy yar,5,RU,1568656421,93,53.6,91.39,44.6,2.24
58,defiance,75,US,1568656422,65,41.28,-84.36,82.4,3.36
59,charters towers,16,AU,1568656422,94,-20.07,146.27,53.77,3.11
60,padang,98,ID,1568656422,73,-0.92,100.36,78.61,7.49
61,saint george,0,GR,1568656422,60,39.45,22.34,77.0,4.7
62,colonia leopoldina,40,BR,1568656422,54,-8.91,-35.73,82.4,13.87
63,peniche,0,PT,1568656423,68,39.36,-9.38,79.0,12.75
64,punta arenas,75,CL,1568656423,66,-53.16,-70.91,50.0,28.86
65,bredasdorp,0,ZA,1568656423,72,-34.53,20.04,62.01,5.82
66,cape town,0,ZA,1568656202,77,-33.93,18.42,66.0,10.29
67,douentza,51,ML,1568656423,38,15.01,-2.95,92.29,10.18
68,yulara,0,AU,1568656424,40,-25.24,130.99,68.0,8.05
69,nishihara,75,JP,1568656424,94,35.74,139.53,75.99,10.29
70,kindersley,20,CA,1568656424,60,51.47,-109.16,80.01,3.36
71,jacqueville,40,CI,1568656424,83,5.21,-4.42,80.6,11.41
72,chegdomyn,0,RU,1568656424,92,51.13,133.04,29.65,1.59
73,leshan,100,CN,1568656268,95,29.56,103.76,64.57,1.19
74,vestmannaeyjar,40,IS,1568656425,81,63.44,-20.27,46.4,16.11
75,kahului,1,US,1568656324,73,20.89,-156.47,80.6,5.82
76,labuhan,39,ID,1568656425,88,-2.54,115.51,71.77,0.92
77,faanui,80,PF,1568656425,80,-16.48,-151.75,77.17,17.05
78,khatanga,36,RU,1568656425,87,71.98,102.47,30.19,6.02
79,alofi,75,NU,1568656426,88,-19.06,-169.92,77.0,3.36
80,upernavik,97,GL,1568656426,57,72.79,-56.15,30.73,10.22
81,dingle,96,PH,1568656426,89,11.0,122.67,75.91,8.05
82,severobaykalsk,84,RU,1568656426,98,55.65,109.32,15.25,3.65
83,saskylakh,100,RU,1568656426,98,71.97,114.09,35.59,5.84
84,pastavy,35,BY,1568656427,71,55.11,26.84,48.73,12.8
85,gat,40,SN,1568656427,94,14.69,-16.54,73.4,11.41
86,cidreira,48,BR,1568656427,69,-30.17,-50.22,74.83,11.68
87,concordia,90,AR,1568656427,59,-31.4,-58.02,64.4,18.34
88,klaksvik,40,FO,1568656427,65,62.23,-6.59,46.4,24.16
89,bonavista,95,CA,1568656305,84,48.65,-53.11,55.99,1.01
90,binga,0,ZW,1568656428,17,-17.62,27.34,71.41,5.1
91,hermanus,0,ZA,1568656428,89,-34.42,19.24,63.0,10.22
92,fort nelson,90,CA,1568656428,93,58.81,-122.69,42.8,4.7
93,richmond,90,CA,1568656235,100,49.16,-123.14,61.0,4.16
94,port elizabeth,90,US,1568656429,39,39.31,-74.98,86.0,4.7
95,carballo,20,ES,1568656429,78,43.21,-8.69,71.6,6.93
96,kaele,58,CM,1568656429,87,10.11,14.45,75.73,5.37
97,sisimiut,49,GL,1568656429,73,66.94,-53.67,39.01,4.12
98,gidam,60,IN,1568656430,97,18.98,81.4,74.65,1.57
99,mount darwin,0,ZW,1568656430,32,-16.77,31.58,69.79,7.29
100,maniitsoq,0,GL,1568656401,67,65.42,-52.9,39.73,10.22
101,port lincoln,0,AU,1568656430,61,-34.72,135.86,52.51,15.46
102,ocean city,1,US,1568656180,46,30.44,-86.61,96.01,3.36
103,coihaique,75,CL,1568656431,57,-45.58,-72.07,51.8,6.93
104,waitati,55,NZ,1568656431,53,-45.75,170.57,43.0,27.0
105,tubuala,40,PA,1568656431,78,9.52,-79.03,84.99,6.93
106,nara,90,JP,1568656432,78,34.68,135.8,77.0,10.29
107,abaza,0,RU,1568656432,89,52.65,90.1,46.21,2.35
108,nanortalik,100,GL,1568656432,64,60.14,-45.24,42.43,7.67
109,new norfolk,14,AU,1568656432,64,-42.78,147.06,41.0,11.41
110,bambous virieux,40,MU,1568656432,83,-20.34,57.76,71.6,3.36
111,puro,99,PH,1568656433,87,13.13,123.76,79.87,12.24
112,cururupu,59,BR,1568656433,49,-1.82,-44.87,90.49,5.12
113,hofn,20,IS,1568656433,57,64.25,-15.21,48.2,17.22
114,kitaibaraki,0,JP,1568656433,93,36.84,140.74,73.99,9.71
115,saint-philippe,40,CA,1568656433,46,45.36,-73.48,70.0,5.82
116,nikolskoye,75,RU,1568656434,87,59.7,30.79,48.2,11.18
117,ugoofaaru,98,MV,1568656434,70,5.67,73.0,83.47,7.94
118,kununurra,55,AU,1568656434,82,-15.77,128.74,64.4,1.23
119,agulu,83,NG,1568656434,90,6.11,7.07,76.63,5.77
120,kijang,20,KR,1568656435,72,35.24,129.21,68.0,10.29
121,kodiak,1,US,1568656435,62,39.95,-94.76,89.01,10.29
122,norfolk,75,US,1568656367,58,36.85,-76.29,87.8,6.93
123,onega,97,RU,1568656435,87,63.91,38.09,47.47,6.31
124,turan,0,RU,1568656435,93,52.15,93.92,36.85,1.57
125,atikokan,60,CA,1568656436,59,48.76,-91.62,77.71,10.02
126,yarkovo,0,RU,1568656436,87,54.81,82.6,53.6,6.71
127,tianpeng,23,CN,1568656436,84,28.88,112.34,66.91,11.27
128,sao gabriel da cachoeira,40,BR,1568656436,62,-0.13,-67.09,89.6,5.82
129,bulgan,8,MN,1568656436,96,48.81,103.53,36.31,2.28
130,merzifon,75,TR,1568656437,67,40.87,35.46,62.6,8.05
131,port blair,100,IN,1568656384,87,11.67,92.75,79.33,29.08
132,mahebourg,40,MU,1568656437,83,-20.41,57.7,71.6,3.36
133,coruripe,0,BR,1568656437,61,-10.12,-36.18,79.69,13.33
134,port macquarie,90,AU,1568656428,93,-31.43,152.91,64.4,13.87
135,berlevag,75,NO,1568656438,81,70.86,29.09,44.6,11.41
136,bend,90,US,1568656354,71,44.06,-121.32,57.0,4.7
137,longyearbyen,20,NO,1568656438,72,78.22,15.63,32.0,16.11
138,avera,1,US,1568656438,41,33.19,-82.53,93.99,9.17
139,buraydah,0,SA,1568656438,18,26.33,43.97,96.8,3.36
140,mount isa,17,AU,1568656324,37,-20.73,139.49,53.6,10.78
141,sao joao da barra,20,BR,1568656439,58,-21.64,-41.05,82.4,20.8
142,tasiilaq,5,GL,1568656439,38,65.61,-37.64,41.0,8.05
143,dikson,100,RU,1568656439,86,73.51,80.55,37.03,19.53
144,pangody,100,RU,1568656439,87,65.85,74.49,46.21,5.5
145,faya,0,SA,1568656440,53,18.39,42.45,78.8,4.7
146,inverness,40,GB,1568656440,71,57.48,-4.23,55.0,18.34
147,arraial do cabo,0,BR,1568656440,74,-22.97,-42.02,82.4,19.46
148,kremsmunster,75,AT,1568656440,60,48.05,14.13,71.6,2.24
149,atascocita,75,US,1568656441,49,30.0,-95.16,93.2,5.82
150,buarcos,20,PT,1568656441,82,40.16,-8.88,75.0,3.36
151,marawi,47,PH,1568656441,82,8.0,124.29,75.99,7.0
152,half moon bay,90,US,1568656441,93,37.46,-122.43,69.01,4.7
153,tezu,94,IN,1568656441,78,27.93,96.16,73.93,1.61
154,kavieng,9,PG,1568656442,75,-2.57,150.8,82.93,8.57
155,waingapu,43,ID,1568656442,92,-9.65,120.26,67.81,9.95
156,mitsamiouli,20,KM,1568656442,74,-11.38,43.28,78.8,5.82
157,cherskiy,91,RU,1568656442,70,68.75,161.3,43.69,0.74
158,palmer,0,AU,1568656252,86,-34.85,139.16,45.0,5.82
159,saldanha,46,PT,1568656443,52,41.42,-6.55,72.13,6.2
160,naze,75,NG,1568656443,94,5.43,7.07,77.0,3.36
161,aksarka,50,RU,1568656443,84,66.56,67.8,42.61,10.71
162,newcastle,90,AU,1568656442,100,-32.93,151.78,60.01,14.99
163,daniel flores,96,CR,1568656443,90,9.34,-83.67,73.21,4.47
164,severo-kurilsk,100,RU,1568656444,93,50.68,156.12,49.27,28.54
165,cuamba,56,MZ,1568656444,39,-14.8,36.54,74.83,4.83
166,goderich,45,CA,1568656444,82,43.74,-81.71,73.99,3.0
167,wawa,41,NG,1568656444,75,9.9,4.41,79.87,3.18
168,mehamn,75,NO,1568656445,81,71.03,27.85,44.6,11.41
169,gorontalo,97,ID,1568656445,94,0.54,123.06,70.15,4.34
170,biltine,42,TD,1568656445,31,14.53,20.93,94.27,13.18
171,rio grande,90,BR,1568656254,93,-32.03,-52.1,60.8,13.87
172,bondo,100,CD,1568656445,98,3.81,23.69,71.95,2.35
173,patiya,40,BD,1568656446,89,22.3,91.98,84.2,8.08
174,vostok,0,RU,1568656446,82,46.45,135.83,37.57,1.45
175,chor,100,PK,1568656446,71,25.52,69.77,83.29,16.24
176,muisne,40,EC,1568656446,78,0.61,-80.02,82.4,10.29
177,bethel,90,US,1568656367,93,60.79,-161.76,51.8,12.75
178,hirara,95,JP,1568656447,82,24.8,125.28,82.03,24.27
179,rupert,1,US,1568656447,33,42.62,-113.68,78.01,7.0
180,boa vista,75,BR,1568656447,83,2.82,-60.67,80.6,5.82
181,severo-yeniseyskiy,72,RU,1568656218,97,60.37,93.04,39.01,6.85
182,maceio,40,BR,1568656435,54,-9.67,-35.74,82.4,13.87
183,hovd,75,NO,1568656448,81,63.83,10.7,51.01,10.29
184,ixtapa,40,MX,1568656448,62,20.71,-105.21,88.0,5.46
185,someshwar,0,IN,1568656448,92,29.78,79.6,59.89,2.57
186,komsomolskiy,100,RU,1568656448,94,67.55,63.78,39.73,7.87
187,thompson,40,CA,1568656449,56,55.74,-97.86,71.6,4.7
188,fukue,40,JP,1568656449,78,35.03,136.69,78.01,13.87
189,bukoba,11,TZ,1568656449,49,-1.33,31.81,71.05,1.16
190,srednekolymsk,7,RU,1568656449,73,67.46,153.71,43.69,3.56
191,bandarbeyla,19,SO,1568656449,79,9.49,50.81,76.99,22.59
192,luderitz,0,NA,1568656450,82,-26.65,15.16,60.8,16.11
193,ponta do sol,20,BR,1568656450,24,-20.63,-46.0,87.61,8.34
194,bahia blanca,0,AR,1568656450,26,-38.72,-62.27,61.87,20.29
195,ornskoldsvik,20,SE,1568656450,75,63.29,18.72,48.2,2.24
196,lasa,20,CY,1568656451,65,34.92,32.53,80.6,9.17
197,coquimbo,75,CL,1568656451,67,-29.95,-71.34,57.2,10.29
198,birjand,0,IR,1568656451,20,32.86,59.22,68.0,11.41
199,golden,1,US,1568656452,13,39.76,-105.22,88.0,5.82
200,carnarvon,0,ZA,1568656452,14,-30.97,22.13,63.49,3.65
201,sibolga,96,ID,1568656452,71,1.74,98.78,80.59,9.1
202,ahipara,25,NZ,1568656452,100,-35.17,173.16,53.01,16.33
203,lebu,75,ET,1568656453,82,8.96,38.73,62.6,4.7
204,chuy,100,UY,1568656453,91,-33.69,-53.46,53.05,9.28
205,tignere,83,CM,1568656453,94,7.37,12.65,67.81,0.78
206,mount gambier,59,AU,1568656340,56,-37.83,140.78,32.0,6.46
207,puerto escondido,40,MX,1568656453,66,15.86,-97.07,86.0,10.29
208,kloulklubed,75,PW,1568656453,83,7.04,134.26,80.6,11.41
209,rawson,65,AR,1568656454,31,-43.3,-65.11,59.35,28.57
210,clyde river,20,CA,1568656454,65,70.47,-68.59,41.0,5.82
211,thomasville,1,US,1568656454,46,35.88,-80.08,93.0,3.36
212,bathsheba,20,BB,1568656454,83,13.22,-59.52,82.4,13.87
213,limon,1,US,1568656455,24,39.26,-103.69,84.0,19.46
214,atar,40,MR,1568656455,10,20.52,-13.05,110.83,11.92
215,vila velha,0,BR,1568656455,55,-3.71,-38.6,86.0,17.22
216,broome,40,GB,1568656455,82,52.47,1.45,60.01,3.36
217,trelleborg,40,SE,1568656455,54,55.38,13.15,57.2,14.99
218,chavakkad,75,IN,1568656456,88,10.53,76.05,80.6,2.24
219,salalah,40,OM,1568656212,94,17.01,54.1,78.8,6.93
220,north las vegas,1,US,1568656456,16,36.2,-115.11,91.99,11.41
221,chebsara,40,RU,1568656456,87,59.2,38.84,48.2,11.18
222,egvekinot,100,RU,1568656456,86,66.32,-179.17,35.05,6.46
223,lompoc,20,US,1568656414,68,34.64,-120.46,73.99,11.77
224,duku,98,ID,1568656457,73,-1.19,100.47,78.61,7.49
225,rabo de peixe,40,PT,1568656457,78,37.8,-25.58,73.4,10.29
226,santa maria,0,BR,1568656316,23,-16.02,-48.01,90.0,11.41
227,vyshkov,0,RU,1568656457,44,52.48,31.69,60.8,11.18
228,verkhnyachka,67,UA,1568656458,61,48.83,30.04,62.05,8.79
229,georgetown,75,GY,1568656458,59,6.8,-58.16,93.2,9.17
230,laguna,40,BZ,1568656458,84,16.17,-88.94,86.0,4.7
231,burnie,0,AU,1568656458,87,-41.05,145.91,32.71,3.0
232,la ronge,75,CA,1568656458,72,55.1,-105.3,66.2,8.05
233,narsaq,75,GL,1568656459,23,60.91,-46.05,48.2,6.93
234,lumphat,97,KH,1568656459,98,13.5,106.97,73.57,3.36
235,vila,0,IT,1568656459,61,45.18,8.4,80.6,5.82
236,iisalmi,90,FI,1568656459,81,63.56,27.19,42.8,13.87
237,zhigansk,50,RU,1568656459,82,66.77,123.37,30.73,7.2
238,kirakira,25,SB,1568656460,85,-10.46,161.92,76.99,2.42
239,vila franca do campo,40,PT,1568656460,78,37.72,-25.43,73.4,10.29
240,quilmana,61,PE,1568656460,81,-12.95,-76.38,61.51,7.85
241,aklavik,90,CA,1568656460,75,68.22,-135.01,44.6,8.05
242,norman wells,75,CA,1568656460,70,65.28,-126.83,44.6,16.11
243,eureka,20,US,1568656322,82,40.8,-124.16,64.99,7.56
244,miri,92,NG,1568656461,90,10.31,9.75,72.85,1.83
245,ancud,75,CL,1568656461,62,-41.87,-73.83,53.6,11.41
246,taguatinga,0,BR,1568656461,23,-15.83,-48.06,90.0,11.41
247,sangar,100,RU,1568656462,85,63.92,127.47,36.67,8.05
248,codrington,1,AU,1568656462,93,-28.95,153.24,64.99,9.17
249,namatanai,34,PG,1568656462,86,-3.66,152.44,77.17,8.14
250,lima,90,PE,1568656462,82,-12.06,-77.04,62.6,8.05
251,mirnyy,38,RU,1568656462,87,56.57,36.46,48.55,12.48
252,galesong,20,ID,1568656463,100,-5.32,119.37,69.8,3.36
253,la plata,0,AR,1568656284,45,-34.92,-57.95,68.0,10.29
254,viedma,17,AR,1568656463,23,-40.81,-62.99,59.17,20.13
255,holoby,99,UA,1568656463,49,51.09,25.02,61.0,11.79
256,pekan,90,MY,1568656463,94,3.49,103.39,77.0,1.19
257,soyo,55,AO,1568656464,81,-6.13,12.37,74.11,11.88
258,beringovskiy,99,RU,1568656464,83,63.05,179.32,41.71,2.13
259,susanville,75,US,1568656263,87,40.42,-120.65,46.99,19.46
260,santo domingo,40,DO,1568656239,56,18.48,-69.94,95.0,7.2
261,atambua,83,ID,1568656464,79,-9.11,124.89,75.55,5.93
262,saucillo,99,MX,1568656465,49,28.03,-105.29,77.71,4.03
263,meulaboh,83,ID,1568656465,80,4.14,96.13,81.13,9.1
264,wairoa,74,NZ,1568656465,64,-39.04,177.43,57.99,4.0
265,oyama,75,JP,1568656465,94,36.31,139.8,79.0,4.7
266,scarborough,75,GB,1568656336,59,54.28,-0.41,60.8,6.93
267,rivadavia,76,AR,1568656465,59,-31.53,-68.59,39.19,5.86
268,mogadishu,6,SO,1568656466,76,2.04,45.34,76.09,14.18
269,hamilton,90,CA,1568656208,82,43.26,-79.87,69.01,14.99
270,gizo,0,IL,1568656466,74,31.8,34.94,81.0,4.7
271,wakkanai,60,JP,1568656466,74,45.41,141.67,65.83,13.62
272,iqaluit,40,CA,1568656466,69,63.75,-68.52,39.2,5.82
273,kastamonu,100,TR,1568656467,97,41.38,33.78,52.15,3.09
274,tiarei,40,PF,1568656467,73,-17.53,-149.33,77.0,2.24
275,takhtamygda,97,RU,1568656467,79,54.1,123.57,30.91,3.85
276,los alamos,90,US,1568656467,82,35.88,-106.3,71.01,6.93
277,tuatapere,100,NZ,1568656468,85,-46.13,167.69,39.99,11.01
278,mocuba,26,MZ,1568656468,74,-16.84,36.99,71.59,8.86
279,brazzaville,92,CD,1568656468,45,-4.27,15.27,87.07,3.42
280,pisco,20,PE,1568656418,30,-13.71,-76.2,71.6,10.29
281,svetlogorsk,75,RU,1568656469,57,53.14,59.15,51.8,13.42
282,east london,40,ZA,1568656469,88,-33.02,27.91,66.2,8.05
283,ostrovnoy,100,RU,1568656469,89,68.05,39.51,41.35,22.15
284,vaitape,80,PF,1568656381,80,-16.52,-151.75,77.17,17.05
285,tiksi,80,RU,1568656469,90,71.64,128.87,32.89,4.41
286,yerbogachen,58,RU,1568656469,95,61.28,108.01,29.29,5.93
287,penzance,75,GB,1568656470,100,50.12,-5.53,62.6,8.05
288,awjilah,0,LY,1568656470,31,29.14,21.3,79.69,9.73
289,sao felix do xingu,2,BR,1568656470,17,-6.64,-51.99,105.61,5.91
290,katsuura,75,JP,1568656470,69,33.93,134.5,75.2,8.05
291,ishigaki,44,JP,1568656471,78,24.34,124.16,82.39,23.67
292,qaracala,40,AZ,1568656471,70,39.81,48.95,69.97,6.49
293,boden,75,SE,1568656471,70,65.83,21.69,48.2,5.82
294,petropavlovsk-kamchatskiy,75,RU,1568656471,100,53.05,158.65,37.4,6.71
295,zhanaozen,10,KZ,1568656471,61,43.35,52.85,64.03,1.72
296,san pedro,28,AR,1568656472,30,-33.68,-59.66,71.01,4.0
297,saint anthony,1,US,1568656472,33,43.97,-111.68,75.2,5.82
298,eyrarbakki,75,IS,1568656472,70,63.86,-21.15,48.2,14.99
299,port hardy,75,CA,1568656472,100,50.7,-127.42,50.0,5.82
300,oussouye,40,SN,1568656472,78,12.49,-16.54,82.4,4.7
301,arkhara,0,RU,1568656473,79,49.42,130.09,39.91,7.76
302,khani,75,GE,1568656473,93,41.96,42.96,66.2,5.82
303,kytmanovo,0,RU,1568656473,87,53.46,85.45,53.41,4.36
304,baniachang,74,BD,1568656473,86,24.52,91.37,78.43,2.39
305,ewa beach,1,US,1568656474,78,21.32,-158.01,82.99,3.36
306,umm kaddadah,81,SD,1568656474,64,13.6,26.69,78.07,18.32
307,portland,75,US,1568656474,48,43.66,-70.25,70.0,16.11
308,shelburne,90,CA,1568656474,87,44.08,-80.2,64.0,3.36
309,buala,13,SB,1568656475,84,-8.15,159.59,78.97,10.51
310,hualmay,100,PE,1568656475,89,-11.1,-77.61,60.61,13.96
311,ayagoz,86,KZ,1568656475,75,47.96,80.43,51.43,3.91
312,puerto leguizamo,6,CO,1568656475,35,-0.19,-74.78,98.77,1.81
313,surt,0,LY,1568656475,68,31.21,16.59,78.25,13.4
314,cockburn town,82,TC,1568656476,80,21.46,-71.14,83.65,11.68
315,kollam,75,IN,1568656476,88,8.88,76.6,80.6,6.93
316,idanre,47,NG,1568656476,86,7.11,5.11,76.99,3.78
317,lakatoro,100,VU,1568656476,76,-16.11,167.42,74.83,13.53
318,provideniya,98,RU,1568656477,86,64.42,-173.23,41.35,5.75
319,prince rupert,75,CA,1568656347,87,54.32,-130.32,53.6,10.29
320,tchollire,100,CM,1568656477,87,8.4,14.17,75.55,1.9
321,lagos,40,NG,1568656458,78,6.46,3.39,82.4,4.7
322,fairbanks,90,US,1568656414,81,64.84,-147.72,48.0,3.36
323,dunedin,55,NZ,1568656400,53,-45.87,170.5,43.0,27.0
324,bonthe,100,SL,1568656478,88,7.53,-12.5,78.07,6.31
325,kumluca,0,TR,1568656478,57,36.37,30.29,59.89,3.44
326,jalu,0,LY,1568656478,31,29.03,21.55,80.59,8.68
327,cayenne,40,GF,1568656478,59,4.94,-52.33,91.4,10.29
328,taoudenni,0,ML,1568656478,8,22.68,-3.98,108.67,18.3
329,middelburg,100,NL,1568656479,82,51.5,3.61,62.6,9.17
330,souillac,0,FR,1568656479,29,45.6,-0.6,89.6,4.7
331,vanimo,14,PG,1568656479,80,-2.67,141.3,81.49,10.04
332,sorong,94,ID,1568656479,96,-0.86,131.25,72.67,4.27
333,shimoda,31,JP,1568656480,94,34.7,138.93,80.01,1.99
334,nizhniy kuranakh,100,RU,1568656480,92,58.84,125.49,29.83,4.97
335,richards bay,0,ZA,1568656480,88,-28.77,32.06,71.05,23.13
336,castelldefels,0,ES,1568656480,47,41.29,1.98,80.01,4.7
337,el retorno,65,CO,1568656481,63,2.33,-72.63,88.33,1.59
338,acari,17,BR,1568656481,20,-6.44,-36.64,97.87,15.86
339,aripuana,82,BR,1568656481,41,-9.17,-60.63,93.01,6.13
340,cervo,55,BR,1568656481,24,-22.19,-46.24,87.79,6.11
341,sorland,20,NO,1568656481,76,67.67,12.69,51.8,6.93
342,caravelas,19,BR,1568656482,65,-17.73,-39.27,77.89,10.83
343,carmen del parana,20,PY,1568656482,41,-27.23,-56.22,93.2,10.29
344,concarneau,0,FR,1568656482,77,47.88,-3.92,75.2,10.29
345,perigueux,0,FR,1568656482,35,45.18,0.72,86.0,3.36
346,deshnok,39,IN,1568656482,29,27.8,73.34,97.51,18.07
347,santa fe,96,AR,1568656483,34,-31.62,-60.7,72.0,11.99
348,borogontsy,100,RU,1568656483,68,62.67,131.17,37.39,4.7
349,beisfjord,0,NO,1568656483,66,68.38,17.6,48.2,13.87
350,kenai,90,US,1568656353,87,60.55,-151.26,50.0,3.36
351,necochea,0,AR,1568656483,52,-38.55,-58.74,55.0,8.99
352,comodoro rivadavia,0,AR,1568656467,35,-45.87,-67.48,55.4,25.28
353,takoradi,77,GH,1568656484,88,4.89,-1.75,76.63,6.93
354,quatre cocos,40,MU,1568656484,83,-20.21,57.76,71.6,3.36
355,kangaatsiaq,100,GL,1568656484,76,68.31,-53.46,40.09,7.92
356,helena,1,US,1568656484,45,46.59,-112.04,79.0,5.5
357,alta floresta,45,BR,1568656485,20,-9.87,-56.08,103.27,4.03
358,shimanovsk,29,RU,1568656485,70,52.0,127.67,38.29,5.88
359,phek,93,IN,1568656485,91,25.7,94.46,73.75,2.21
360,nortelandia,5,BR,1568656485,8,-14.45,-56.8,109.03,6.76
361,yaan,78,NG,1568656486,83,7.38,8.57,79.51,2.06
362,nemuro,97,JP,1568656486,94,43.32,145.57,63.85,12.41
363,batagay-alyta,9,RU,1568656486,80,67.8,130.41,24.43,2.1
364,radovitskiy,1,RU,1568656486,69,55.13,39.8,52.0,3.0
365,gweru,48,ZW,1568656486,25,-19.46,29.82,69.25,12.41
366,killybegs,90,IE,1568656487,67,54.63,-8.45,57.2,16.11
367,esperance,75,AU,1568656487,81,-33.86,121.89,51.8,14.99
368,hasaki,75,JP,1568656487,100,35.73,140.83,72.0,1.12
369,nong chik,75,TH,1568656487,79,6.84,101.18,80.77,12.44
370,kathu,0,ZA,1568656331,31,-27.7,23.05,65.65,4.72
371,alice springs,47,AU,1568656488,32,-23.7,133.88,66.2,5.82
372,lata,14,IN,1568656488,94,30.78,78.62,35.77,1.12
373,boguchany,100,RU,1568656488,74,58.38,97.46,39.01,3.58
374,mmathubudukwane,0,BW,1568656488,17,-24.61,26.43,84.2,8.05
375,diamantino,9,BR,1568656488,9,-14.4,-56.44,111.19,2.57
376,mujiayingzi,17,CN,1568656489,67,42.12,118.78,49.81,7.43
377,soroti,52,UG,1568656489,62,1.71,33.61,71.95,5.64
378,sioux lookout,40,CA,1568656489,69,50.1,-91.92,75.2,6.93
379,yakeshi,78,CN,1568656489,80,49.28,120.73,41.35,9.15
380,adre,62,TD,1568656489,56,13.47,22.2,80.59,1.92
381,la tuque,90,CA,1568656490,57,47.44,-72.79,59.53,8.05
382,baiao,27,BR,1568656493,30,-2.79,-49.67,99.49,4.5
383,kondol,77,RU,1568656493,49,52.82,45.06,57.99,12.88
384,tonk,15,IN,1568656494,74,26.16,75.79,82.57,6.44
385,grande prairie,75,CA,1568656199,81,55.17,-118.79,46.4,8.05
386,muravlenko,100,RU,1568656494,90,63.79,74.5,47.47,8.59
387,kidero,68,RU,1568656494,98,42.19,45.96,40.99,7.34
388,myitkyina,92,MM,1568656494,88,25.38,97.4,71.95,1.32
389,atbasar,51,KZ,1568656494,48,51.81,68.36,59.53,11.97
390,acapulco,75,MX,1568656495,74,16.86,-99.88,86.0,6.93
391,geraldton,75,CA,1568656495,82,49.72,-86.95,64.4,2.24
392,kedrovyy,90,RU,1568656495,100,56.17,91.82,39.2,5.19
393,veraval,0,FR,1568656495,77,49.65,0.71,66.2,6.93
394,macon,40,US,1568656495,46,32.84,-83.63,96.01,8.05
395,tigre,0,AR,1568656496,39,-34.42,-58.58,68.0,5.82
396,axim,38,GH,1568656496,89,4.87,-2.24,77.17,13.06
397,yar-sale,35,RU,1568656496,86,66.83,70.83,42.25,7.16
398,lagoa,20,PT,1568656496,78,37.14,-8.45,80.01,5.82
399,kindu,100,CD,1568656497,94,-2.95,25.92,72.85,3.31
400,berlin,20,DE,1568656489,82,52.52,13.39,60.01,9.17
401,banda aceh,94,ID,1568656497,81,5.56,95.32,81.85,17.29
402,brae,20,GB,1568656497,70,60.4,-1.35,50.0,20.8
403,kulu,100,CD,1568656497,98,3.47,23.69,72.67,2.06
404,chapais,90,CA,1568656498,66,49.78,-74.86,53.6,8.05
405,alyangula,68,AU,1568656498,93,-13.85,136.42,60.8,2.24
406,horki,34,BY,1568656498,74,54.29,30.98,49.63,13.29
407,acaponeta,89,MX,1568656498,49,22.49,-105.36,95.53,2.42
408,nhamunda,78,BR,1568656498,31,-2.19,-56.71,99.67,4.14
409,riyadh,0,SA,1568656239,11,24.63,46.72,96.8,6.93
410,fuxin,0,CN,1568656499,59,42.02,121.65,48.37,2.53
411,oktyabrskoye,0,RU,1568656499,93,56.73,85.44,55.4,8.95
412,mopipi,0,BW,1568656499,14,-21.2,24.86,76.45,6.26
413,dali,100,CN,1568656499,82,34.79,109.94,64.75,2.51
414,sao filipe,29,CV,1568656500,85,14.9,-24.5,81.85,10.36
415,san patricio,4,PY,1568656500,23,-26.98,-56.83,101.47,9.4
416,vilyuysk,76,RU,1568656500,88,63.75,121.63,29.11,5.3
417,ponta delgada,40,PT,1568656426,78,37.73,-25.67,73.4,10.29
418,khorixas,0,NA,1568656500,28,-20.37,14.96,69.43,2.93
419,kantang,68,TH,1568656500,96,7.42,99.52,73.75,0.51
420,fare,49,PF,1568656501,76,-16.7,-151.02,77.53,18.25
421,harper,75,US,1568656501,40,30.3,-99.24,91.4,5.82
422,nuuk,20,GL,1568656501,45,64.17,-51.74,44.6,8.05
423,spornoye,0,RU,1568656501,45,50.84,37.29,62.6,4.47
424,ust-tsilma,100,RU,1568656502,93,65.44,52.15,40.63,5.64
425,callaway,1,US,1568656502,65,46.98,-95.91,82.4,14.99
426,pokhara,94,NP,1568656442,89,28.21,83.99,55.39,4.25
427,manta,0,RO,1568656502,47,45.1,24.1,63.85,4.5
428,bac giang,40,VN,1568656503,83,21.27,106.2,82.4,4.7
429,lazaro cardenas,75,MX,1568656503,57,28.39,-105.62,80.01,6.93
430,luganville,100,VU,1568656503,93,-15.51,167.18,67.63,2.68
431,nelson bay,90,AU,1568656503,100,-32.72,152.14,60.01,14.99
432,alim,87,CF,1568656503,97,6.02,14.65,67.45,3.98
433,kushiro,41,JP,1568656504,95,43.11,144.15,61.33,5.26
434,tabas,0,IR,1568656504,18,33.6,56.92,87.8,4.7
435,donskoye,0,RU,1568656504,42,45.45,41.98,68.0,4.47
436,kovvur,0,IN,1568656435,85,17.02,81.73,80.23,6.38
437,kon tum,46,VN,1568656504,99,14.36,108.0,68.17,1.19
438,kavaratti,89,IN,1568656505,79,10.57,72.64,81.85,14.0
439,ampanihy,0,MG,1568656505,74,-24.69,44.75,64.75,10.04
440,yumen,0,CN,1568656505,16,40.29,97.04,62.05,18.72
441,usinsk,100,RU,1568656505,88,66.0,57.56,40.99,11.52
442,beloha,0,MG,1568656506,72,-25.17,45.06,65.83,11.92
443,altay,100,CN,1568656506,56,47.83,88.13,44.59,1.97
444,porbandar,54,IN,1568656506,77,21.64,69.61,83.29,15.9
445,bushehr,0,IR,1568656507,79,28.97,50.84,86.0,3.74
446,edirne,100,TR,1568656507,64,41.68,26.56,61.0,6.96
447,saint-georges,99,CA,1568656303,22,46.12,-70.67,59.0,5.99
448,mpika,0,ZM,1568656507,37,-11.84,31.4,73.57,10.13
449,gawler,0,AU,1568656508,80,-34.6,138.75,45.0,5.82
450,touros,40,BR,1568656508,62,-5.2,-35.46,84.2,19.46
451,huntsville,75,US,1568656266,38,34.73,-86.59,96.01,9.17
452,lufilufi,6,WS,1568656508,83,-13.87,-171.6,82.0,15.99
453,srandakan,62,ID,1568656508,86,-7.94,110.25,75.01,11.61
454,katangli,0,RU,1568656509,87,51.71,143.23,47.11,6.33
455,pacifica,90,US,1568656399,93,37.61,-122.49,68.0,4.7
456,xiaoyi,98,CN,1568656509,73,37.15,111.77,52.33,3.6
457,springdale,1,US,1568656509,55,36.19,-94.13,91.0,3.36
458,los llanos de aridane,75,ES,1568656509,78,28.66,-17.92,75.2,8.05
459,swan river,6,CA,1568656509,45,52.11,-101.27,76.63,12.17
460,namibe,82,AO,1568656510,83,-15.19,12.15,66.91,8.16
461,salmo,100,CA,1568656510,82,49.19,-117.28,57.0,1.01
462,doha,100,QA,1568656443,75,25.29,51.53,93.2,5.82
463,luanda,0,AO,1568656223,83,-8.83,13.24,73.4,9.17
464,tugulym,75,RU,1568656510,100,57.06,64.64,46.99,6.71
465,hegang,0,CN,1568656510,71,47.34,130.28,40.27,4.47
466,conde,26,BR,1568656511,55,-11.81,-37.61,80.23,8.68
467,eyl,26,SO,1568656511,84,7.98,49.82,75.01,23.06
468,mandera,49,ET,1568656511,27,3.94,41.86,87.43,10.11
469,meadow lake,20,CA,1568656511,68,54.13,-108.44,66.2,2.24
470,dawson,75,US,1568656512,62,39.85,-89.46,91.0,5.82
471,ossora,28,RU,1568656512,87,59.24,163.07,38.65,2.28
472,bambanglipuro,62,ID,1568656512,86,-7.95,110.28,75.01,11.61
473,romilly-sur-seine,0,FR,1568656512,41,48.52,3.72,75.2,5.82
474,praia da vitoria,40,PT,1568656512,83,38.73,-27.07,73.4,14.99
475,shar,78,NG,1568656513,83,7.3,8.73,79.51,2.06
476,constitucion,5,MX,1568656502,45,23.99,-104.67,73.99,3.36
477,lavrentiya,77,RU,1568656513,80,65.58,-170.99,35.41,15.23
478,deputatskiy,93,RU,1568656513,96,69.3,139.9,33.97,1.66
479,progreso,0,UY,1568656514,51,-34.68,-56.22,60.8,11.41
480,kudahuvadhoo,54,MV,1568656514,68,2.67,72.89,83.29,1.07
481,zhezkazgan,26,KZ,1568656514,32,47.8,67.71,63.31,7.31
482,mosquera,75,CO,1568656514,45,4.71,-74.23,66.2,6.93
483,mandalgovi,26,MN,1568656514,53,45.76,106.27,47.11,8.37
484,slave lake,90,CA,1568656396,81,55.28,-114.77,53.6,13.87
485,finschhafen,82,PG,1568656515,96,-6.6,147.85,63.49,2.21
486,bubaque,20,GW,1568656515,81,11.28,-15.83,82.93,15.93
487,palana,21,RU,1568656515,76,59.08,159.95,47.47,12.91
488,sukumo,6,JP,1568656515,85,32.94,132.72,70.69,7.96
489,truro,75,GB,1568656516,100,50.26,-5.05,64.99,8.05
490,vagur,49,FO,1568656516,68,61.47,-6.81,46.93,33.11
491,portoviejo,0,EC,1568656516,73,-1.05,-80.45,77.0,13.87
492,pak phanang,93,TH,1568656516,80,8.35,100.2,77.53,2.68
493,agboville,75,CI,1568656516,94,5.93,-4.21,76.27,4.56
494,matara,8,BI,1568656517,73,-3.48,29.48,57.01,1.61
495,yangjiang,16,CN,1568656517,90,21.85,111.96,75.55,1.43
496,wapi pathum,83,TH,1568656517,71,15.84,103.38,78.61,1.25
497,steamboat springs,40,US,1568656517,45,40.48,-106.83,73.4,2.46
498,tarata,0,PE,1568656518,63,-17.47,-70.03,64.4,8.05
499,san jeronimo,40,PE,1568656518,51,-13.65,-73.37,59.0,8.05
500,pervomayskoye,8,RU,1568656518,96,57.07,86.23,51.07,7.81
501,grand baie,40,MU,1568656518,83,-20.02,57.58,71.6,3.36
502,belaya gora,100,RU,1568656518,88,68.54,146.19,41.53,3.56
503,valley station,90,US,1568656519,32,33.35,-86.77,98.01,8.05
504,north bend,40,US,1568656519,93,43.41,-124.22,64.0,8.05
505,nazarovo,22,RU,1568656519,90,56.01,90.42,47.83,8.48
506,nacala,30,MZ,1568656519,85,-14.56,40.69,70.33,7.23
507,hobyo,5,SO,1568656519,83,5.35,48.53,76.63,23.76
508,hervey bay,0,AU,1568656520,82,-25.3,152.85,60.8,9.17
509,lishu,0,CN,1568656520,65,43.31,124.32,46.21,6.08
510,vitim,100,RU,1568656520,98,59.44,112.57,28.75,4.14
511,krasnoye-na-volge,40,RU,1568656249,87,57.51,41.24,50.0,8.95
512,dombarovskiy,100,RU,1568656520,46,50.76,59.54,57.19,10.69
513,thabazimbi,0,ZA,1568656521,25,-24.59,27.41,71.23,3.47
514,barillas,63,ES,1568656521,44,41.97,-1.66,82.4,5.82
515,nurota,0,UZ,1568656521,24,40.56,65.69,68.0,2.24
516,dong hoi,51,VN,1568656521,88,17.48,106.6,75.73,2.68
517,surovikino,0,RU,1568656521,28,48.61,42.84,64.21,11.34
518,monte santo,69,BR,1568656522,40,-10.44,-39.33,84.37,10.65
519,vao,56,EE,1568656522,91,59.1,26.19,47.47,7.4
520,haines junction,100,CA,1568656522,73,60.75,-137.51,42.79,2.75
521,mondolfo,0,IT,1568656522,69,43.75,13.1,77.0,5.82
522,caernarfon,78,GB,1568656523,71,53.14,-4.27,57.2,11.41
523,beatrice,1,US,1568656523,55,40.27,-96.75,89.01,12.75
524,easton,20,US,1568656523,42,38.77,-76.08,91.0,5.82
525,zheleznodorozhnyy,0,RU,1568656523,76,55.75,38.0,53.6,6.71
526,melbu,0,NO,1568656523,81,68.5,14.83,50.0,4.7
527,hammond,40,US,1568656524,58,30.5,-90.46,91.99,8.05
528,bonnyville,75,CA,1568656524,67,54.27,-110.74,62.6,4.7
529,puerto colombia,75,CO,1568656524,94,10.99,-74.96,84.0,3.36
530,puerto suarez,50,BO,1568656524,39,-18.96,-57.8,104.0,11.41
531,boende,100,CD,1568656525,94,-0.28,20.88,74.65,2.75
532,grindavik,75,IS,1568656525,87,63.84,-22.43,48.2,19.46
533,along,100,IN,1568656525,100,28.17,94.8,59.71,2.13
534,muli,55,CN,1568656525,86,28.08,109.56,67.81,6.64
535,victor harbor,0,AU,1568656525,80,-35.55,138.62,48.0,5.82
536,roald,40,NO,1568656526,70,62.58,6.12,48.2,13.87
537,truth or consequences,1,US,1568656526,60,33.13,-107.25,77.0,6.93
538,tevriz,50,RU,1568656526,67,57.51,72.4,57.73,8.52
539,siniscola,0,IT,1568656526,65,40.57,9.69,80.6,3.36
540,isla pucu,57,PY,1568656526,29,-25.3,-56.9,100.4,6.93
541,pelym,21,RU,1568656527,91,61.01,62.0,42.61,5.73
542,revda,93,RU,1568656527,94,67.94,34.55,40.09,8.57
543,byron bay,5,AU,1568656527,77,-28.65,153.62,64.99,10.29
